[
  {
    "stop_id": "1",
    "stop_name": "Dilshad Garden",
    "stop_lat": "28.675991",
    "stop_lon": "77.321495",
    "distance": 9.4,
    "Line": "Red line",
    "stop_date": "2008-04-06",
    "stop_layout": "Elevated",
    "connection": null
  },
  {
    "stop_id": "2",
    "stop_name": "Jhilmil",
    "stop_lat": "28.675648",
    "stop_lon": "77.312393",
    "distance": 10.2,
    "Line": "Red line",
    "stop_layout": "Elevated",
    "stop_date": "2008-04-04",
    "connection": null
  },
  {
    "stop_id": "3",
    "stop_name": "Mansrover park",
    "stop_lat": "28.675352",
    "stop_lon": "77.301178",
    "distance": 11.5,
    "Line": "Red line",
    "stop_layout": "Elevated",
    "stop_date": "2008-04-04",
    "connection": null
  },
  {
    "stop_id": "4",
    "stop_name": "Shahdara",
    "stop_lat": "28.673531",
    "stop_lon": "77.28727",
    "distance": 12.5,
    "Line": "Red line",
    "stop_date": "2002-12-24",
    "stop_layout": "Elevated",
    "connection": null
  },
  {
    "stop_id": "5",
    "stop_name": "Welcome",
    "stop_lat": "28.671986",
    "stop_lon": "77.277931",
    "distance": 13.7,
    "Line": "Red line",
    "stop_date": "2002-12-25",
    "stop_layout": "Elevated",
    "connection": "Pink"
  },
  {
    "stop_id": "6",
    "stop_name": "Seelam Pur",
    "stop_lat": "28.670324",
    "stop_lon": "77.267311",
    "distance": 14.7,
    "Line": "Red line",
    "stop_layout": "Elevated",
    "stop_date": "2002-12-25",
    "connection": null
  },
  {
    "stop_id": "7",
    "stop_name": "Shastri Park",
    "stop_lat": "28.668451",
    "stop_lon": "77.250404",
    "distance": 16.4,
    "Line": "Red line",
    "stop_date": "2002-12-25",
    "stop_layout": "Elevated",
    "connection": null
  },
  {
    "stop_id": "8",
    "stop_name": "Kashmere Gate",
    "stop_lat": "28.667879",
    "stop_lon": "77.228012",
    "distance": 13.2,
    "Line": "Yellow line",
    "stop_date": "2004-12-20",
    "stop_layout": "Underground",
    "connection": "Violet"
  },
  {
    "stop_id": "9",
    "stop_name": "Tis Hazari",
    "stop_lat": "28.667137",
    "stop_lon": "77.216721",
    "distance": 19.7,
    "Line": "Red line",
    "stop_date": "2002-12-25",
    "stop_layout": "Elevated",
    "connection": null
  },
  {
    "stop_id": "10",
    "stop_name": "Pul Bangash",
    "stop_lat": "28.66571",
    "stop_lon": "77.206329",
    "distance": 20.6,
    "Line": "Red line",
    "stop_date": "2003-03-10",
    "stop_layout": "Elevated",
    "connection": null
  },
  {
    "stop_id": "11",
    "stop_name": "Pratap Nagar",
    "stop_lat": "28.666632",
    "stop_lon": "77.196869",
    "distance": 21.4,
    "Line": "Red line",
    "stop_date": "2003-03-10",
    "stop_layout": "Elevated",
    "connection": null
  },
  {
    "stop_id": "12",
    "stop_name": "Shastri Nagar",
    "stop_lat": "28.670135",
    "stop_lon": "77.181679",
    "distance": 23.1,
    "Line": "Red line",
    "stop_date": "2003-03-10",
    "stop_layout": "Elevated",
    "connection": null
  },
  {
    "stop_id": "13",
    "stop_name": "Inderlok",
    "stop_lat": "28.673452",
    "stop_lon": "77.170235",
    "distance": 24.3,
    "Line": "Red line",
    "stop_date": "2003-03-10",
    "stop_layout": "Elevated",
    "connection": "Green"
  },
  {
    "stop_id": "14",
    "stop_name": "Kanhaiya Nagar",
    "stop_lat": "28.682386",
    "stop_lon": "77.162552",
    "distance": 25.5,
    "Line": "Red line",
    "stop_date": "2004-03-31",
    "stop_layout": "Elevated",
    "connection": null
  },
  {
    "stop_id": "15",
    "stop_name": "Keshav Puram",
    "stop_lat": "28.688944",
    "stop_lon": "77.161774",
    "distance": 26.2,
    "Line": "Red line",
    "stop_date": "2004-03-31",
    "stop_layout": "Elevated",
    "connection": null
  },
  {
    "stop_id": "16",
    "stop_name": "Netaji Subash Place",
    "stop_lat": "28.695637",
    "stop_lon": "77.152428",
    "distance": 27.4,
    "Line": "Red line",
    "stop_date": "2018-03-14",
    "stop_layout": "Elevated",
    "connection": "Pink"
  },
  {
    "stop_id": "17",
    "stop_name": "Kohat Enclave",
    "stop_lat": "28.697943",
    "stop_lon": "77.140465",
    "distance": 28.6,
    "Line": "Red line",
    "stop_date": "2004-03-31",
    "stop_layout": "Elevated",
    "connection": null
  },
  {
    "stop_id": "18",
    "stop_name": "Pitampura",
    "stop_lat": "28.70318",
    "stop_lon": "77.132355",
    "distance": 29.8,
    "Line": "Red line",
    "stop_date": "2004-03-31",
    "stop_layout": "Elevated",
    "connection": null
  },
  {
    "stop_id": "19",
    "stop_name": "Rohini East",
    "stop_lat": "28.707941",
    "stop_lon": "77.125732",
    "distance": 30.4,
    "Line": "Red line",
    "stop_date": "2004-03-31",
    "stop_layout": "Elevated",
    "connection": null
  },
  {
    "stop_id": "20",
    "stop_name": "Rohini West",
    "stop_lat": "28.715008",
    "stop_lon": "77.115746",
    "distance": 31.7,
    "Line": "Red line",
    "stop_date": "2004-03-31",
    "stop_layout": "Elevated",
    "connection": null
  },
  {
    "stop_id": "21",
    "stop_name": "Rithala",
    "stop_lat": "28.720821",
    "stop_lon": "77.105042",
    "distance": 33,
    "Line": "Red line",
    "stop_date": "2004-03-31",
    "stop_layout": "Elevated",
    "connection": null
  },
  {
    "stop_id": "22",
    "stop_name": "Mundka",
    "stop_lat": "28.682411",
    "stop_lon": "77.028282",
    "distance": 13.7,
    "Line": "Green line",
    "stop_date": "2010-02-04",
    "stop_layout": "Elevated",
    "connection": null
  },
  {
    "stop_id": "23",
    "stop_name": "Rajdhani Park",
    "stop_lat": "28.682217",
    "stop_lon": "77.043869",
    "distance": 12.4,
    "Line": "Green line",
    "stop_date": "2010-02-04",
    "stop_layout": "Elevated",
    "connection": null
  },
  {
    "stop_id": "24",
    "stop_name": "Nangloi Railway Station",
    "stop_lat": "28.682091",
    "stop_lon": "77.05619",
    "distance": 11.2,
    "Line": "Green line",
    "stop_date": "2010-02-04",
    "stop_layout": "Elevated",
    "connection": null
  },
  {
    "stop_id": "25",
    "stop_name": "Nangloi",
    "stop_lat": "28.682356",
    "stop_lon": "77.064728",
    "distance": 10.3,
    "Line": "Green line",
    "stop_date": "2010-02-04",
    "stop_layout": "Elevated",
    "connection": null
  },
  {
    "stop_id": "26",
    "stop_name": "Maharaja Surajmal Stadium",
    "stop_lat": "28.681833",
    "stop_lon": "77.073891",
    "distance": 9.5,
    "Line": "Green line",
    "stop_date": "2010-02-04",
    "stop_layout": "Elevated",
    "connection": null
  },
  {
    "stop_id": "27",
    "stop_name": "Udyog Nagar",
    "stop_lat": "28.681047",
    "stop_lon": "77.078674",
    "distance": 8.8,
    "Line": "Green line",
    "stop_date": "2010-02-04",
    "stop_layout": "Elevated",
    "connection": null
  },
  {
    "stop_id": "28",
    "stop_name": "Peera Garhi",
    "stop_lat": "28.67972",
    "stop_lon": "77.092491",
    "distance": 7.6,
    "Line": "Green line",
    "stop_date": "2010-02-04",
    "stop_layout": "Elevated",
    "connection": null
  },
  {
    "stop_id": "29",
    "stop_name": "Paschim Vihar (West)",
    "stop_lat": "28.678539",
    "stop_lon": "77.102119",
    "distance": 6.7,
    "Line": "Green line",
    "stop_date": "2010-02-04",
    "stop_layout": "Elevated",
    "connection": null
  },
  {
    "stop_id": "30",
    "stop_name": "Paschim Vihar (East)",
    "stop_lat": "28.677305",
    "stop_lon": "77.112251",
    "distance": 5.7,
    "Line": "Green line",
    "stop_date": "2010-02-04",
    "stop_layout": "Elevated",
    "connection": null
  },
  {
    "stop_id": "31",
    "stop_name": "Madipur",
    "stop_lat": "28.676418",
    "stop_lon": "77.117294",
    "distance": 5,
    "Line": "Green line",
    "stop_date": "2010-02-04",
    "stop_layout": "Elevated",
    "connection": null
  },
  {
    "stop_id": "32",
    "stop_name": "Shivaji Park",
    "stop_lat": "28.674965",
    "stop_lon": "77.128258",
    "distance": 3.9,
    "Line": "Green line",
    "stop_date": "2010-02-04",
    "stop_layout": "Elevated",
    "connection": null
  },
  {
    "stop_id": "33",
    "stop_name": "Punjabi Bagh",
    "stop_lat": "28.672943",
    "stop_lon": "77.146011",
    "distance": 2.3,
    "Line": "Green line",
    "stop_date": "2010-02-04",
    "stop_layout": "Elevated",
    "connection": null
  },
  {
    "stop_id": "34",
    "stop_name": "Ashok Park Main",
    "stop_lat": "28.671572",
    "stop_lon": "77.155159",
    "distance": 1.4,
    "Line": "Green line",
    "stop_date": "2010-02-04",
    "stop_layout": "Elevated",
    "connection": null
  },
  {
    "stop_id": "35",
    "stop_name": "Satguru Ram Singh Marg",
    "stop_lat": "28.662188",
    "stop_lon": "77.157829",
    "distance": 1.1,
    "Line": "Green line",
    "stop_date": "2011-08-24",
    "stop_layout": "Elevated",
    "connection": null
  },
  {
    "stop_id": "36",
    "stop_name": "Samaypur Badli",
    "stop_lat": "28.7450",
    "stop_lon": "77.1377",
    "distance": 0,
    "Line": "Yellow line",
    "stop_date": "10-11-2015",
    "stop_layout": "Elevated",
    "connection": null
  },
  {
    "stop_id": "37",
    "stop_name": "Rohini Sector 18-19",
    "stop_lat": "28.7384",
    "stop_lon": "77.1399",
    "distance": 0.8,
    "Line": "Yellow line",
    "stop_date": "2015-10-11",
    "stop_layout": "Elevated",
    "connection": null
  },
  {
    "stop_id": "38",
    "stop_name": "Haiderpur Badli Mor",
    "stop_lat": "28.7300",
    "stop_lon": "77.1492",
    "distance": 2.1,
    "Line": "Yellow line",
    "stop_date": "2015-10-11",
    "stop_layout": "Elevated",
    "connection": null
  },
  {
    "stop_id": "39",
    "stop_name": "Jahangirpuri",
    "stop_lat": "28.72818",
    "stop_lon": "77.16124",
    "distance": 3.4,
    "Line": "Yellow line",
    "stop_date": "2009-04-02",
    "stop_layout": "Elevated",
    "connection": null
  },
  {
    "stop_id": "40",
    "stop_name": "Adarsh Nagar",
    "stop_lat": "28.696377",
    "stop_lon": "77.208809",
    "distance": 4.7,
    "Line": "Yellow line",
    "stop_date": "2009-04-02",
    "stop_layout": "Elevated",
    "connection": null
  },
  {
    "stop_id": "41",
    "stop_name": "Azadpur",
    "stop_lat": "28.707287",
    "stop_lon": "77.179863",
    "distance": 6.2,
    "Line": "Yellow line",
    "stop_date": "2009-04-02",
    "stop_layout": "Elevated",
    "connection": "Pink"
  },
  {
    "stop_id": "42",
    "stop_name": "Model Town",
    "stop_lat": "28.702833",
    "stop_lon": "77.193764",
    "distance": 7.6,
    "Line": "Yellow line",
    "stop_date": "2009-04-02",
    "stop_layout": "Elevated",
    "connection": null
  },
  {
    "stop_id": "43",
    "stop_name": "Guru Tegh Bahadur Nagar",
    "stop_lat": "28.698195",
    "stop_lon": "77.206985",
    "distance": 9,
    "Line": "Yellow line",
    "stop_date": "2009-04-02",
    "stop_layout": "Underground",
    "connection": null
  },
  {
    "stop_id": "44",
    "stop_name": "Vishwavidyalaya",
    "stop_lat": "28.694765",
    "stop_lon": "77.212418",
    "distance": 9.8,
    "Line": "Yellow line",
    "stop_date": "2004-12-20",
    "stop_layout": "Underground",
    "connection": null
  },
  {
    "stop_id": "45",
    "stop_name": "Vidhan Sabha",
    "stop_lat": "28.687845",
    "stop_lon": "77.221626",
    "distance": 10.8,
    "Line": "Yellow line",
    "stop_date": "2004-12-20",
    "stop_layout": "Underground",
    "connection": null
  },
  {
    "stop_id": "46",
    "stop_name": "Civil Lines",
    "stop_lat": "28.676945",
    "stop_lon": "77.224953",
    "distance": 12.1,
    "Line": "Yellow line",
    "stop_date": "2004-12-20",
    "stop_layout": "Underground",
    "connection": null
  },
  {
    "stop_id": "47",
    "stop_name": "Chandni Chowk",
    "stop_lat": "28.656443",
    "stop_lon": "77.229218",
    "distance": 14.3,
    "Line": "Yellow line",
    "stop_date": "2005-03-07",
    "stop_layout": "Underground",
    "connection": null
  },
  {
    "stop_id": "48",
    "stop_name": "Chawri Bazar",
    "stop_lat": "28.649635",
    "stop_lon": "77.22628",
    "distance": 15.3,
    "Line": "Yellow line",
    "stop_date": "2005-03-07",
    "stop_layout": "Underground",
    "connection": null
  },
  {
    "stop_id": "49",
    "stop_name": "New Delhi",
    "stop_lat": "28.642944",
    "stop_lon": "77.222351",
    "distance": 16.1,
    "Line": "Yellow line",
    "stop_date": "2005-03-07",
    "stop_layout": "Underground",
    "connection": "Orange"
  },
  {
    "stop_id": "50",
    "stop_name": "Rajiv Chowk",
    "stop_lat": "28.632896",
    "stop_lon": "77.219574",
    "distance": 30.1,
    "Line": "Blue line",
    "stop_date": "2005-12-30",
    "stop_layout": "Underground",
    "connection": "Yellow"
  },
  {
    "stop_id": "51",
    "stop_name": "Patel Chowk",
    "stop_lat": "28.622967",
    "stop_lon": "77.212288",
    "distance": 18.5,
    "Line": "Yellow line",
    "stop_date": "2005-03-07",
    "stop_layout": "Underground",
    "connection": null
  },
  {
    "stop_id": "52",
    "stop_name": "Central Secretariat",
    "stop_lat": "28.614973",
    "stop_lon": "77.212029",
    "distance": 8.5,
    "Line": "Voilet line",
    "stop_date": "2010-03-10",
    "stop_layout": "Underground",
    "connection": "Yellow"
  },
  {
    "stop_id": "53",
    "stop_name": "Udyog Bhawan",
    "stop_lat": "28.611525",
    "stop_lon": "77.210052",
    "distance": 19.7,
    "Line": "Yellow line",
    "stop_date": "2010-03-09",
    "stop_layout": "Underground",
    "connection": null
  },
  {
    "stop_id": "54",
    "stop_name": "Lok Kalyan Marg",
    "stop_lat": "28.597519",
    "stop_lon": "77.209122",
    "distance": 21.3,
    "Line": "Yellow line",
    "stop_date": "2010-03-09",
    "stop_layout": "Underground",
    "connection": null
  },
  {
    "stop_id": "55",
    "stop_name": "Jorbagh",
    "stop_lat": "28.587234",
    "stop_lon": "77.212662",
    "distance": 22.9,
    "Line": "Yellow line",
    "stop_date": "3-8-2010",
    "stop_layout": "Elevated",
    "connection": null
  },
  {
    "stop_id": "56",
    "stop_name": "Dilli Haat - INA",
    "stop_lat": "28.575195",
    "stop_lon": "77.209473",
    "distance": 23.9,
    "Line": "Yellow line",
    "stop_date": "3-8-2010",
    "stop_layout": "Island",
    "connection": "Pink"
  },
  {
    "stop_id": "57",
    "stop_name": "AIIMS",
    "stop_lat": "28.568199",
    "stop_lon": "77.207947",
    "distance": 24.6,
    "Line": "Yellow line",
    "stop_date": "2010-02-09",
    "stop_layout": "Underground",
    "connection": null
  },
  {
    "stop_id": "58",
    "stop_name": "Green Park",
    "stop_lat": "28.559853",
    "stop_lon": "77.206902",
    "distance": 25.6,
    "Line": "Yellow line",
    "stop_date": "2010-03-09",
    "stop_layout": "Underground",
    "connection": null
  },
  {
    "stop_id": "59",
    "stop_name": "Hauz Khas",
    "stop_lat": "28.543346",
    "stop_lon": "77.206673",
    "distance": 27.4,
    "Line": "Yellow line",
    "stop_date": "2010-03-09",
    "stop_layout": "Underground",
    "connection": "Magenta"
  },
  {
    "stop_id": "60",
    "stop_name": "Malviya Nagar",
    "stop_lat": "28.52817",
    "stop_lon": "77.205612",
    "distance": 29.1,
    "Line": "Yellow line",
    "stop_date": "2010-03-09",
    "stop_layout": "Underground",
    "connection": null
  },
  {
    "stop_id": "61",
    "stop_name": "Saket",
    "stop_lat": "28.520638",
    "stop_lon": "77.199379",
    "distance": 30,
    "Line": "Yellow line",
    "stop_date": "2010-03-09",
    "stop_layout": "Underground",
    "connection": null
  },
  {
    "stop_id": "62",
    "stop_name": "Qutab Minar",
    "stop_lat": "28.512714",
    "stop_lon": "77.185791",
    "distance": 31.7,
    "Line": "Yellow line",
    "stop_date": "2010-06-21",
    "stop_layout": "Elevated",
    "connection": null
  },
  {
    "stop_id": "63",
    "stop_name": "Chhattarpur",
    "stop_lat": "28.506584",
    "stop_lon": "77.174866",
    "distance": 33,
    "Line": "Yellow line",
    "stop_date": "2010-08-26",
    "stop_layout": "Elevated",
    "connection": null
  },
  {
    "stop_id": "64",
    "stop_name": "Sultanpur",
    "stop_lat": "28.499214",
    "stop_lon": "77.161362",
    "distance": 34.6,
    "Line": "Yellow line",
    "stop_date": "2010-06-21",
    "stop_layout": "Elevated",
    "connection": null
  },
  {
    "stop_id": "65",
    "stop_name": "Ghitorni",
    "stop_lat": "28.49383",
    "stop_lon": "77.149071",
    "distance": 35.9,
    "Line": "Yellow line",
    "stop_date": "2010-06-21",
    "stop_layout": "Elevated",
    "connection": null
  },
  {
    "stop_id": "66",
    "stop_name": "Arjan Garh",
    "stop_lat": "28.48082",
    "stop_lon": "77.12587",
    "distance": 38.6,
    "Line": "Yellow line",
    "stop_date": "2010-06-21",
    "stop_layout": "Elevated",
    "connection": null
  },
  {
    "stop_id": "67",
    "stop_name": "Gurudronacharya",
    "stop_lat": "28.482075",
    "stop_lon": "77.102219",
    "distance": 40.6,
    "Line": "Yellow line",
    "stop_date": "2010-06-21",
    "stop_layout": "Elevated",
    "connection": null
  },
  {
    "stop_id": "68",
    "stop_name": "Sikanderpur",
    "stop_lat": "28.481352",
    "stop_lon": "77.092995",
    "distance": 41.6,
    "Line": "Yellow line",
    "stop_date": "2010-06-21",
    "stop_layout": "Elevated",
    "connection": "Rapid Metro"
  },
  {
    "stop_id": "69",
    "stop_name": "MG Road",
    "stop_lat": "28.47967",
    "stop_lon": "77.080444",
    "distance": 43.1,
    "Line": "Yellow line",
    "stop_date": "2010-06-21",
    "stop_layout": "Elevated",
    "connection": null
  },
  {
    "stop_id": "70",
    "stop_name": "IFFCO Chowk",
    "stop_lat": "28.472137",
    "stop_lon": "77.072502",
    "distance": 44.2,
    "Line": "Yellow line",
    "stop_date": "2010-06-21",
    "stop_layout": "Elevated",
    "connection": null
  },
  {
    "stop_id": "71",
    "stop_name": "Huda City Centre",
    "stop_lat": "28.459118",
    "stop_lon": "77.072586",
    "distance": 45.7,
    "Line": "Yellow line",
    "stop_date": "2010-06-21",
    "stop_layout": "Elevated",
    "connection": null
  },
  {
    "stop_id": "72",
    "stop_name": "Vaishali",
    "stop_lat": "28.650059",
    "stop_lon": "77.337608",
    "distance": 8.1,
    "Line": "Blue line",
    "stop_date": "2011-07-14",
    "stop_layout": "Elevated",
    "connection": null
  },
  {
    "stop_id": "73",
    "stop_name": "Kaushambi",
    "stop_lat": "28.645428",
    "stop_lon": "77.322273",
    "distance": 6.5,
    "Line": "Blue line",
    "stop_date": "2011-07-14",
    "stop_layout": "Elevated",
    "connection": null
  },
  {
    "stop_id": "74",
    "stop_name": "Anand Vihar",
    "stop_lat": "28.647005",
    "stop_lon": "77.316185",
    "distance": 41.9,
    "Line": "Pink line",
    "stop_date": "2018-10-31",
    "stop_layout": "Elevated",
    "connection": "Blue"
  },
  {
    "stop_id": "75",
    "stop_name": "Karkarduma",
    "stop_lat": "28.648653",
    "stop_lon": "77.304581",
    "distance": 4.4,
    "Line": "Blue line",
    "stop_date": "2018-10-31",
    "stop_layout": "Elevated",
    "connection": "Pink"
  },
  {
    "stop_id": "76",
    "stop_name": "Preet Vihar",
    "stop_lat": "28.641352",
    "stop_lon": "77.295158",
    "distance": 3.4,
    "Line": "Blue line",
    "stop_date": "2010-06-01",
    "stop_layout": "Elevated",
    "connection": null
  },
  {
    "stop_id": "77",
    "stop_name": "Nirman Vihar",
    "stop_lat": "28.637049",
    "stop_lon": "77.287872",
    "distance": 2.4,
    "Line": "Blue line",
    "stop_date": "2010-06-01",
    "stop_layout": "Elevated",
    "connection": null
  },
  {
    "stop_id": "78",
    "stop_name": "Laxmi Nagar",
    "stop_lat": "28.629843",
    "stop_lon": "77.276428",
    "distance": 1.3,
    "Line": "Blue line",
    "stop_date": "2010-06-01",
    "stop_layout": "Elevated",
    "connection": null
  },
  {
    "stop_id": "79",
    "stop_name": "Noida City Centre",
    "stop_lat": "28.574593",
    "stop_lon": "77.356117",
    "distance": 47,
    "Line": "Red line",
    "stop_date": "2003-03-10",
    "stop_layout": "Elevated",
    "connection": null
  },
  {
    "stop_id": "80",
    "stop_name": "Golf Course",
    "stop_lat": "28.566917",
    "stop_lon": "77.345726",
    "distance": 45.9,
    "Line": "Blue line",
    "stop_date": "2009-12-11",
    "stop_layout": "Elevated",
    "connection": null
  },
  {
    "stop_id": "81",
    "stop_name": "Botanical Garden",
    "stop_lat": "28.564198",
    "stop_lon": "77.334656",
    "distance": 44.7,
    "Line": "Blue line",
    "stop_date": "2009-12-11",
    "stop_layout": "Elevated",
    "connection": "Magenta"
  },
  {
    "stop_id": "82",
    "stop_name": "Noida Sec -18",
    "stop_lat": "28.570843",
    "stop_lon": "77.326088",
    "distance": 45.7,
    "Line": "Blue line",
    "stop_date": "2009-12-11",
    "stop_layout": "Elevated",
    "connection": null
  },
  {
    "stop_id": "83",
    "stop_name": "Noida Sec -16",
    "stop_lat": "28.577921",
    "stop_lon": "77.318115",
    "distance": 46.7,
    "Line": "Blue line",
    "stop_date": "2009-12-11",
    "stop_layout": "Elevated",
    "connection": null
  },
  {
    "stop_id": "84",
    "stop_name": "Noida Sec -15",
    "stop_lat": "28.585018",
    "stop_lon": "77.311584",
    "distance": 47.7,
    "Line": "Blue line",
    "stop_date": "2009-12-11",
    "stop_layout": "Elevated",
    "connection": null
  },
  {
    "stop_id": "85",
    "stop_name": "New Ashok Nagar",
    "stop_lat": "28.58847",
    "stop_lon": "77.30146",
    "distance": 40.4,
    "Line": "Blue line",
    "stop_date": "2009-12-11",
    "stop_layout": "Elevated",
    "connection": null
  },
  {
    "stop_id": "86",
    "stop_name": "Mayur Vihar Ext",
    "stop_lat": "28.594124",
    "stop_lon": "77.294495",
    "distance": 41.4,
    "Line": "Blue line",
    "stop_date": "2005-12-31",
    "stop_layout": "Elevated",
    "connection": "Blue"
  },
  {
    "stop_id": "87",
    "stop_name": "Mayur Vihar-I",
    "stop_lat": "28.604425",
    "stop_lon": "77.289421",
    "distance": 40.4,
    "Line": "Blue line",
    "stop_date": "2005-12-31",
    "stop_layout": "Elevated",
    "connection": "Blue"
  },
  {
    "stop_id": "88",
    "stop_name": "Akshardham",
    "stop_lat": "28.618364",
    "stop_lon": "77.279816",
    "distance": 36.5,
    "Line": "Blue line",
    "stop_date": "2009-12-11",
    "stop_layout": "Elevated",
    "connection": null
  },
  {
    "stop_id": "89",
    "stop_name": "Yamuna Bank",
    "stop_lat": "28.623178",
    "stop_lon": "77.267937",
    "distance": 0,
    "Line": "Blue line",
    "stop_date": "2009-10-05",
    "stop_layout": "At-Grade",
    "connection": null
  },
  {
    "stop_id": "90",
    "stop_name": "Indraprastha",
    "stop_lat": "28.620272",
    "stop_lon": "77.250076",
    "distance": 33.4,
    "Line": "Blue line",
    "stop_date": "2006-11-11",
    "stop_layout": "Elevated",
    "connection": null
  },
  {
    "stop_id": "91",
    "stop_name": "Supreme Court",
    "stop_lat": "28.623438",
    "stop_lon": "77.2425",
    "distance": 34.7,
    "Line": "Blue line",
    "stop_date": "2009-12-11",
    "stop_layout": "Elevated",
    "connection": null
  },
  {
    "stop_id": "92",
    "stop_name": "Mandi House",
    "stop_lat": "28.625816",
    "stop_lon": "77.234726",
    "distance": 5.8,
    "Line": "Voilet line",
    "stop_date": "2014-06-26",
    "stop_layout": "Underground",
    "connection": "Blue"
  },
  {
    "stop_id": "93",
    "stop_name": "Barakhamba",
    "stop_lat": "28.629662",
    "stop_lon": "77.224876",
    "distance": 30.8,
    "Line": "Blue line",
    "stop_date": "2005-12-30",
    "stop_layout": "Underground",
    "connection": null
  },
  {
    "stop_id": "94",
    "stop_name": "RK Ashram Marg",
    "stop_lat": "28.639217",
    "stop_lon": "77.206291",
    "distance": 31.8,
    "Line": "Blue line",
    "stop_date": "2005-12-31",
    "stop_layout": "Elevated",
    "connection": "Blue"
  },
  {
    "stop_id": "95",
    "stop_name": "Jhandewalan",
    "stop_lat": "28.644312",
    "stop_lon": "77.199791",
    "distance": 27.9,
    "Line": "Blue line",
    "stop_date": "2005-12-30",
    "stop_layout": "Elevated",
    "connection": null
  },
  {
    "stop_id": "96",
    "stop_name": "Karol Bagh",
    "stop_lat": "28.643925",
    "stop_lon": "77.188416",
    "distance": 26.7,
    "Line": "Blue line",
    "stop_date": "2005-12-30",
    "stop_layout": "Elevated",
    "connection": null
  },
  {
    "stop_id": "97",
    "stop_name": "Rajendra Place",
    "stop_lat": "28.6422",
    "stop_lon": "77.1782",
    "distance": 25.7,
    "Line": "Blue line",
    "stop_date": "2005-12-30",
    "stop_layout": "Elevated",
    "connection": null
  },
  {
    "stop_id": "98",
    "stop_name": "Patel Nagar",
    "stop_lat": "28.645037",
    "stop_lon": "77.167046",
    "distance": 24.8,
    "Line": "Blue line",
    "stop_date": "2005-12-30",
    "stop_layout": "Elevated",
    "connection": null
  },
  {
    "stop_id": "99",
    "stop_name": "Shadipur",
    "stop_lat": "28.65143",
    "stop_lon": "77.156021",
    "distance": 23.5,
    "Line": "Blue line",
    "stop_date": "2005-12-30",
    "stop_layout": "Elevated",
    "connection": null
  },
  {
    "stop_id": "100",
    "stop_name": "Kirti Nagar",
    "stop_lat": "28.655773",
    "stop_lon": "77.148499",
    "distance": 22.8,
    "Line": "Blue line",
    "stop_date": "2005-12-30",
    "stop_layout": "Elevated",
    "connection": "Green"
  },
  {
    "stop_id": "101",
    "stop_name": "Moti Nagar",
    "stop_lat": "28.657803",
    "stop_lon": "77.140488",
    "distance": 21.8,
    "Line": "Blue line",
    "stop_date": "2005-12-30",
    "stop_layout": "Elevated",
    "connection": null
  },
  {
    "stop_id": "102",
    "stop_name": "Ramesh Nagar",
    "stop_lat": "28.652809",
    "stop_lon": "77.131462",
    "distance": 20.6,
    "Line": "Blue line",
    "stop_date": "2005-12-30",
    "stop_layout": "Elevated",
    "connection": null
  },
  {
    "stop_id": "103",
    "stop_name": "Rajouri Garden",
    "stop_lat": "28.649157",
    "stop_lon": "77.122749",
    "distance": 19.6,
    "Line": "Blue line",
    "stop_date": "2005-12-30",
    "stop_layout": "Elevated",
    "connection": "Pink"
  },
  {
    "stop_id": "104",
    "stop_name": "Tagore Garden",
    "stop_lat": "28.643795",
    "stop_lon": "77.112747",
    "distance": 18.5,
    "Line": "Blue line",
    "stop_date": "2005-12-30",
    "stop_layout": "Elevated",
    "connection": null
  },
  {
    "stop_id": "105",
    "stop_name": "Subash Nagar",
    "stop_lat": "28.640381",
    "stop_lon": "77.10273",
    "distance": 17,
    "Line": "Blue line",
    "stop_date": "2005-12-30",
    "stop_layout": "Elevated",
    "connection": null
  },
  {
    "stop_id": "106",
    "stop_name": "Tilak Nagar",
    "stop_lat": "28.636568",
    "stop_lon": "77.096336",
    "distance": 16.7,
    "Line": "Blue line",
    "stop_date": "2005-12-30",
    "stop_layout": "Elevated",
    "connection": null
  },
  {
    "stop_id": "107",
    "stop_name": "Janak Puri East",
    "stop_lat": "28.633121",
    "stop_lon": "77.086578",
    "distance": 15.7,
    "Line": "Blue line",
    "stop_date": "2005-12-30",
    "stop_layout": "Elevated",
    "connection": null
  },
  {
    "stop_id": "108",
    "stop_name": "Janak Puri West",
    "stop_lat": "28.629637",
    "stop_lon": "77.077866",
    "distance": 0,
    "Line": "Magenta line",
    "stop_date": "2018-05-29",
    "stop_layout": "Underground",
    "connection": "Blue"
  },
  {
    "stop_id": "109",
    "stop_name": "Uttam Nagar East",
    "stop_lat": "28.624643",
    "stop_lon": "77.063126",
    "distance": 13.4,
    "Line": "Blue line",
    "stop_date": "2005-12-30",
    "stop_layout": "Elevated",
    "connection": null
  },
  {
    "stop_id": "110",
    "stop_name": "Uttam Nagar West",
    "stop_lat": "28.621672",
    "stop_lon": "77.055664",
    "distance": 12.4,
    "Line": "Blue line",
    "stop_date": "2005-12-30",
    "stop_layout": "Elevated",
    "connection": null
  },
  {
    "stop_id": "111",
    "stop_name": "Nawada",
    "stop_lat": "28.620222",
    "stop_lon": "77.044991",
    "distance": 11.4,
    "Line": "Blue line",
    "stop_date": "2005-12-30",
    "stop_layout": "Elevated",
    "connection": null
  },
  {
    "stop_id": "112",
    "stop_name": "Dwarka Mor",
    "stop_lat": "28.619366",
    "stop_lon": "77.033188",
    "distance": 10.2,
    "Line": "Blue line",
    "stop_date": "2005-12-30",
    "stop_layout": "Elevated",
    "connection": null
  },
  {
    "stop_id": "113",
    "stop_name": "Dwarka",
    "stop_lat": "28.614899",
    "stop_lon": "77.022629",
    "distance": 9.1,
    "Line": "Blue line",
    "stop_date": "2005-12-30",
    "stop_layout": "Elevated",
    "connection": "Gray"
  },
  {
    "stop_id": "114",
    "stop_name": "Dwarka Sector - 14",
    "stop_lat": "28.602232",
    "stop_lon": "77.02594",
    "distance": 8.1,
    "Line": "Blue line",
    "stop_date": "2005-12-30",
    "stop_layout": "Elevated",
    "connection": null
  },
  {
    "stop_id": "115",
    "stop_name": "Dwarka Sector - 13",
    "stop_lat": "28.59705",
    "stop_lon": "77.033043",
    "distance": 7,
    "Line": "Blue line",
    "stop_date": "2005-12-30",
    "stop_layout": "Elevated",
    "connection": null
  },
  {
    "stop_id": "116",
    "stop_name": "Dwarka Sector - 12",
    "stop_lat": "28.592234",
    "stop_lon": "77.040558",
    "distance": 5.8,
    "Line": "Blue line",
    "stop_date": "01-04-2006",
    "stop_layout": "Elevated"
  },
  {
    "stop_id": "117",
    "stop_name": "Dwarka Sector - 11",
    "stop_lat": "28.58642",
    "stop_lon": "77.049255",
    "distance": 4.8,
    "Line": "Blue line",
    "stop_date": "01-04-2006",
    "stop_layout": "Elevated"
  },
  {
    "stop_id": "118",
    "stop_name": "Dwarka Sector - 10",
    "stop_lat": "28.581108",
    "stop_lon": "77.05719",
    "distance": 3.8,
    "Line": "Blue line",
    "stop_date": "01-04-2006",
    "stop_layout": "Elevated"
  },
  {
    "stop_id": "119",
    "stop_name": "Dwarka Sector - 9",
    "stop_lat": "28.574284",
    "stop_lon": "77.065086",
    "distance": 2.7,
    "Line": "Blue line",
    "stop_date": "01-04-2006",
    "stop_layout": "Elevated"
  },
  {
    "stop_id": "120",
    "stop_name": "Dwarka Sector - 8",
    "stop_lat": "28.565706",
    "stop_lon": "77.064896",
    "distance": 1.7,
    "Line": "Blue line",
    "stop_date": "30-10-2010",
    "stop_layout": "Elevated"
  },
  {
    "stop_id": "121",
    "stop_name": "Dwarka Sector - 21",
    "stop_lat": "28.552322",
    "stop_lon": "77.056198",
    "distance": 0,
    "Line": "Blue line",
    "stop_date": "30-10-2010",
    "stop_layout": "Underground"
  },
  {
    "stop_id": "122",
    "stop_name": "ITO",
    "stop_lat": "28.627205",
    "stop_lon": "77.240952",
    "distance": 5,
    "Line": "Voilet line",
    "stop_date": "2015-08-06",
    "stop_layout": "Underground",
    "connection": null
  },
  {
    "stop_id": "123",
    "stop_name": "Janpath",
    "stop_lat": "28.6251",
    "stop_lon": "77.2192",
    "distance": 7.2,
    "Line": "Voilet line",
    "stop_date": "2014-06-26",
    "stop_layout": "Underground",
    "connection": null
  },
  {
    "stop_id": "124",
    "stop_name": "Khan Market",
    "stop_lat": "28.602682",
    "stop_lon": "77.228096",
    "distance": 10.6,
    "Line": "Voilet line",
    "stop_date": "2010-03-10",
    "stop_layout": "Underground",
    "connection": null
  },
  {
    "stop_id": "125",
    "stop_name": "Jawahar Lal Nehru Stadium",
    "stop_lat": "28.590475",
    "stop_lon": "77.23307",
    "distance": 12,
    "Line": "Voilet line",
    "stop_date": "03-10-2010",
    "stop_layout": "Underground"
  },
  {
    "stop_id": "126",
    "stop_name": "Jangpura",
    "stop_lat": "28.583231",
    "stop_lon": "77.239662",
    "distance": 12.9,
    "Line": "Voilet line",
    "stop_date": "2010-03-10",
    "stop_layout": "Underground",
    "connection": null
  },
  {
    "stop_id": "127",
    "stop_name": "Lajpat Nagar",
    "stop_lat": "28.570705",
    "stop_lon": "77.233124",
    "distance": 14.4,
    "Line": "Voilet line",
    "stop_date": "2010-03-10",
    "stop_layout": "Elevated",
    "connection": "Pink"
  },
  {
    "stop_id": "128",
    "stop_name": "Moolchand",
    "stop_lat": "28.564629",
    "stop_lon": "77.234222",
    "distance": 15.1,
    "Line": "Voilet line",
    "stop_date": "2010-03-10",
    "stop_layout": "Elevated",
    "connection": null
  },
  {
    "stop_id": "129",
    "stop_name": "Kailash Colony",
    "stop_lat": "28.554617",
    "stop_lon": "77.239738",
    "distance": 16.4,
    "Line": "Voilet line",
    "stop_date": "2010-03-10",
    "stop_layout": "Elevated",
    "connection": null
  },
  {
    "stop_id": "130",
    "stop_name": "Nehru Place",
    "stop_lat": "28.551134",
    "stop_lon": "77.251511",
    "distance": 17.4,
    "Line": "Voilet line",
    "stop_date": "2010-03-10",
    "stop_layout": "Elevated",
    "connection": null
  },
  {
    "stop_id": "131",
    "stop_name": "Kalkaji Mandir",
    "stop_lat": "28.549532",
    "stop_lon": "77.258789",
    "distance": 18.2,
    "Line": "Voilet line",
    "stop_date": "2010-03-10",
    "stop_layout": "Elevated",
    "connection": "Magenta"
  },
  {
    "stop_id": "132",
    "stop_name": "Govind Puri",
    "stop_lat": "28.544413",
    "stop_lon": "77.264259",
    "distance": 18.9,
    "Line": "Voilet line",
    "stop_date": "2010-03-10",
    "stop_layout": "Elevated",
    "connection": null
  },
  {
    "stop_id": "133",
    "stop_name": "Harkesh Nagar Okhla",
    "stop_lat": "28.543194",
    "stop_lon": "77.275955",
    "distance": 20,
    "Line": "Voilet line",
    "stop_date": "03-10-2010",
    "stop_layout": "Elevated"
  },
  {
    "stop_id": "134",
    "stop_name": "Jasola-Apollo",
    "stop_lat": "28.538084",
    "stop_lon": "77.285538",
    "distance": 20.9,
    "Line": "Voilet line",
    "stop_date": "03-10-2010",
    "stop_layout": "Elevated"
  },
  {
    "stop_id": "135",
    "stop_name": "Sarita Vihar",
    "stop_lat": "28.528622",
    "stop_lon": "77.288345",
    "distance": 22.1,
    "Line": "Voilet line",
    "stop_date": "2010-03-10",
    "stop_layout": "Elevated",
    "connection": null
  },
  {
    "stop_id": "136",
    "stop_name": "Mohan Estate",
    "stop_lat": "28.51959",
    "stop_lon": "77.294518",
    "distance": 23.3,
    "Line": "Voilet line",
    "stop_date": "2011-01-14",
    "stop_layout": "Elevated",
    "connection": null
  },
  {
    "stop_id": "137",
    "stop_name": "Tughlakabad Station",
    "stop_lat": "28.502232",
    "stop_lon": "77.29866",
    "distance": 25.2,
    "Line": "Voilet line",
    "stop_date": "14-01-2011",
    "stop_layout": "Elevated"
  },
  {
    "stop_id": "138",
    "stop_name": "Badarpur Border",
    "stop_lat": "28.4932",
    "stop_lon": "77.30085",
    "distance": 26.3,
    "Line": "Voilet line",
    "stop_date": "2011-01-14",
    "stop_layout": "Elevated",
    "connection": null
  },
  {
    "stop_id": "139",
    "stop_name": "Sarai",
    "stop_lat": "28.47794",
    "stop_lon": "77.304932",
    "distance": 28.8,
    "Line": "Voilet line",
    "stop_date": "2015-06-09",
    "stop_layout": "Elevated",
    "connection": null
  },
  {
    "stop_id": "140",
    "stop_name": "NHPC Chowk",
    "stop_lat": "28.462435",
    "stop_lon": "77.305252",
    "distance": 30.4,
    "Line": "Voilet line",
    "stop_date": "06-09-2015",
    "stop_layout": "Elevated"
  },
  {
    "stop_id": "141",
    "stop_name": "Mewala Maharajpur",
    "stop_lat": "28.4485",
    "stop_lon": "77.308098",
    "distance": 31.3,
    "Line": "Voilet line",
    "stop_date": "2015-06-09",
    "stop_layout": "Elevated",
    "connection": null
  },
  {
    "stop_id": "142",
    "stop_name": "Sector-28",
    "stop_lat": "28.440586",
    "stop_lon": "77.305992",
    "distance": 32.5,
    "Line": "Voilet line",
    "stop_date": "06-09-2015",
    "stop_layout": "Elevated"
  },
  {
    "stop_id": "143",
    "stop_name": "Badkal Mor",
    "stop_lat": "28.422707",
    "stop_lon": "77.310234",
    "distance": 34.2,
    "Line": "Voilet line",
    "stop_date": "2015-06-09",
    "stop_layout": "Elevated",
    "connection": null
  },
  {
    "stop_id": "144",
    "stop_name": "Old Faridabad",
    "stop_lat": "28.412172",
    "stop_lon": "77.311272",
    "distance": 35.4,
    "Line": "Voilet line",
    "stop_date": "2015-06-09",
    "stop_layout": "Elevated",
    "connection": null
  },
  {
    "stop_id": "145",
    "stop_name": "Neelam Chowk Ajronda",
    "stop_lat": "28.400707",
    "stop_lon": "77.309105",
    "distance": 37,
    "Line": "Voilet line",
    "stop_date": "2015-06-09",
    "stop_layout": "Elevated",
    "connection": null
  },
  {
    "stop_id": "146",
    "stop_name": "Bata Chowk",
    "stop_lat": "28.3860",
    "stop_lon": "77.3134",
    "distance": 38.3,
    "Line": "Voilet line",
    "stop_date": "2015-06-09",
    "stop_layout": "Elevated",
    "connection": null
  },
  {
    "stop_id": "147",
    "stop_name": "Escorts Mujesar",
    "stop_lat": "28.370199",
    "stop_lon": "77.315002",
    "distance": 40.1,
    "Line": "Voilet line",
    "stop_date": "2015-06-09",
    "stop_layout": "Elevated",
    "connection": null
  },
  {
    "stop_id": "149",
    "stop_name": "Phase 2 (Rapid Metro)",
    "stop_lat": "28.488371",
    "stop_lon": "77.092865",
    "distance": 7.3,
    "Line": "Rapid Metro",
    "stop_date": "14-11-2013",
    "stop_layout": "Elevated"
  },
  {
    "stop_id": "150",
    "stop_name": "Belvedere Towers (Rapid Metro)",
    "stop_lat": "28.492065",
    "stop_lon": "77.088142",
    "distance": 8,
    "Line": "Rapid Metro",
    "stop_date": "14-11-2013",
    "stop_layout": "Elevated"
  },
  {
    "stop_id": "151",
    "stop_name": "Cyber City (Rapid Metro)",
    "stop_lat": "28.498478",
    "stop_lon": "77.089088",
    "distance": 8.6,
    "Line": "Rapid Metro",
    "stop_date": "07-05-2014",
    "stop_layout": "Elevated"
  },
  {
    "stop_id": "152",
    "stop_name": "Moulsari Avenue (Rapid Metro)",
    "stop_lat": "28.501572",
    "stop_lon": "77.094536",
    "distance": 9.2,
    "Line": "Rapid Metro",
    "stop_date": "14-11-2013",
    "stop_layout": "Elevated"
  },
  {
    "stop_id": "153",
    "stop_name": "Phase 3 (Rapid Metro)",
    "stop_lat": "28.494329",
    "stop_lon": "77.093552",
    "distance": 10,
    "Line": "Rapid Metro",
    "stop_date": "14-11-2013",
    "stop_layout": "Elevated"
  },
  {
    "stop_id": "154",
    "stop_name": "IGI Airport",
    "stop_lat": "28.554869",
    "stop_lon": "77.087921",
    "distance": 17.9,
    "Line": "Orange line",
    "stop_date": "2011-02-23",
    "stop_layout": "Underground",
    "connection": null
  },
  {
    "stop_id": "155",
    "stop_name": "Delhi Aerocity",
    "stop_lat": "28.548792",
    "stop_lon": "77.120743",
    "distance": 14.5,
    "Line": "Orange line",
    "stop_date": "2011-08-15",
    "stop_layout": "Underground",
    "connection": null
  },
  {
    "stop_id": "156",
    "stop_name": "Dhaula Kuan",
    "stop_lat": "28.591776",
    "stop_lon": "77.161545",
    "distance": 8.3,
    "Line": "Orange line",
    "stop_date": "2011-08-15",
    "stop_layout": "Elevated",
    "connection": "Pink"
  },
  {
    "stop_id": "157",
    "stop_name": "Shivaji Stadium",
    "stop_lat": "28.629007",
    "stop_lon": "77.209213",
    "distance": 1.9,
    "Line": "Orange line",
    "stop_date": "2011-02-23",
    "stop_layout": "Underground",
    "connection": null
  },
  {
    "stop_id": "158",
    "stop_name": "Delhi Gate",
    "stop_lat": "28.640488",
    "stop_lon": "77.240303",
    "distance": 3.7,
    "Line": "Voilet line",
    "stop_date": "2017-05-28",
    "stop_layout": "Underground",
    "connection": null
  },
  {
    "stop_id": "159",
    "stop_name": "Jama Masjid",
    "stop_lat": "28.650393",
    "stop_lon": "77.237556",
    "distance": 2.3,
    "Line": "Voilet line",
    "stop_date": "2017-05-28",
    "stop_layout": "Underground",
    "connection": null
  },
  {
    "stop_id": "160",
    "stop_name": "Lal Quila",
    "stop_lat": "28.657576",
    "stop_lon": "77.236595",
    "distance": 1.5,
    "Line": "Voilet line",
    "stop_date": "2017-05-28",
    "stop_layout": "Underground",
    "connection": null
  },
  {
    "stop_id": "161",
    "stop_name": "Okhla Bird Sanctuary",
    "stop_lat": "28.552816",
    "stop_lon": "77.321564",
    "distance": 31.4,
    "Line": "Magenta line",
    "stop_date": "2017-12-25",
    "stop_layout": "Elevated",
    "connection": null
  },
  {
    "stop_id": "162",
    "stop_name": "Kalindi Kunj",
    "stop_lat": "28.542835",
    "stop_lon": "77.310173",
    "distance": 29.8,
    "Line": "Magenta line",
    "stop_date": "2017-12-25",
    "stop_layout": "Elevated",
    "connection": null
  },
  {
    "stop_id": "163",
    "stop_name": "Jasola Vihar Shaheen Bagh",
    "stop_lat": "28.546005",
    "stop_lon": "77.296715",
    "distance": 28.4,
    "Line": "Magenta line",
    "stop_date": "2017-12-25",
    "stop_layout": "Elevated",
    "connection": null
  },
  {
    "stop_id": "164",
    "stop_name": "Okhla Vihar",
    "stop_lat": "28.561255",
    "stop_lon": "77.291916",
    "distance": 26.6,
    "Line": "Magenta line",
    "stop_date": "2017-12-25",
    "stop_layout": "Elevated",
    "connection": null
  },
  {
    "stop_id": "165",
    "stop_name": "Jamia Millia Islamia",
    "stop_lat": "28.562944",
    "stop_lon": "77.286209",
    "distance": 26.1,
    "Line": "Magenta line",
    "stop_date": "25-12-2017",
    "stop_layout": "Elevated"
  },
  {
    "stop_id": "166",
    "stop_name": "Sukhdev Vihar",
    "stop_lat": "28.559887",
    "stop_lon": "77.275116",
    "distance": 24.9,
    "Line": "Magenta line",
    "stop_date": "2017-12-25",
    "stop_layout": "Elevated",
    "connection": null
  },
  {
    "stop_id": "167",
    "stop_name": "Okhla NSIC",
    "stop_lat": "28.554575",
    "stop_lon": "77.26487",
    "distance": 23.8,
    "Line": "Magenta line",
    "stop_date": "2017-12-25",
    "stop_layout": "Elevated",
    "connection": null
  },
  {
    "stop_id": "168",
    "stop_name": "Phase-I (Rapid Metro)",
    "stop_lat": "28.471981",
    "stop_lon": "77.094009",
    "distance": 5.5,
    "Line": "Rapid Metro",
    "stop_date": "31-03-2017",
    "stop_layout": "Elevated"
  },
  {
    "stop_id": "169",
    "stop_name": "Sector 42-43 (Rapid Metro)",
    "stop_lat": "28.458475",
    "stop_lon": "77.09684",
    "distance": 3.9,
    "Line": "Rapid Metro",
    "stop_date": "25-04-2017",
    "stop_layout": "Elevated"
  },
  {
    "stop_id": "170",
    "stop_name": "Sector 53-54 (Rapid Metro)",
    "stop_lat": "28.447533",
    "stop_lon": "77.100487",
    "distance": 2.6,
    "Line": "Rapid Metro",
    "stop_date": "25-04-2017",
    "stop_layout": "Elevated"
  },
  {
    "stop_id": "171",
    "stop_name": "Sector 54 Chowk (Rapid Metro)",
    "stop_lat": "28.434212",
    "stop_lon": "77.104782",
    "distance": 1.1,
    "Line": "Rapid Metro",
    "stop_date": "31-03-2017",
    "stop_layout": "Elevated"
  },
  {
    "stop_id": "172",
    "stop_name": "Sector 55-56 (Rapid Metro)",
    "stop_lat": "28.424587",
    "stop_lon": "77.105042",
    "distance": 0,
    "Line": "Rapid Metro",
    "stop_date": "31-03-2017",
    "stop_layout": "Elevated"
  },
  {
    "stop_id": "173",
    "stop_name": "Majlis Park",
    "stop_lat": "28.724157",
    "stop_lon": "77.182068",
    "distance": 0,
    "Line": "Pink line",
    "stop_date": "2018-03-14",
    "stop_layout": "Elevated",
    "connection": null
  },
  {
    "stop_id": "174",
    "stop_name": "Shalimar Bagh",
    "stop_lat": "28.70182",
    "stop_lon": "77.165184",
    "distance": 3.7,
    "Line": "Pink line",
    "stop_date": "2018-03-14",
    "stop_layout": "Underground",
    "connection": null
  },
  {
    "stop_id": "175",
    "stop_name": "Shakurpur",
    "stop_lat": "28.685781",
    "stop_lon": "77.149651",
    "distance": 6.3,
    "Line": "Pink line",
    "stop_date": "2018-03-14",
    "stop_layout": "Elevated",
    "connection": null
  },
  {
    "stop_id": "176",
    "stop_name": "Punjabi Bagh West",
    "stop_lat": "28.672747",
    "stop_lon": "77.139183",
    "distance": 7.7,
    "Line": "Pink line",
    "stop_date": "2018-03-14",
    "stop_layout": "Elevated",
    "connection": null
  },
  {
    "stop_id": "177",
    "stop_name": "ESI Basai Darapur",
    "stop_lat": "28.658159",
    "stop_lon": "77.127319",
    "distance": 10.2,
    "Line": "Pink line",
    "stop_date": "14-03-2018",
    "stop_layout": "Elevated"
  },
  {
    "stop_id": "178",
    "stop_name": "Mayapuri",
    "stop_lat": "28.637098",
    "stop_lon": "77.129738",
    "distance": 12.8,
    "Line": "Pink line",
    "stop_date": "14-03-2018",
    "stop_layout": "Elevated"
  },
  {
    "stop_id": "179",
    "stop_name": "Naraina Vihar",
    "stop_lat": "28.624121",
    "stop_lon": "77.136482",
    "distance": 14.3,
    "Line": "Pink line",
    "stop_date": "2018-03-14",
    "stop_layout": "Underground",
    "connection": null
  },
  {
    "stop_id": "180",
    "stop_name": "Delhi Cantt",
    "stop_lat": "28.608641",
    "stop_lon": "77.140373",
    "distance": 16.1,
    "Line": "Pink line",
    "stop_date": "14-03-2018",
    "stop_layout": "Elevated"
  },
  {
    "stop_id": "181",
    "stop_name": "Durgabai Deshmukh South Campus",
    "stop_lat": "28.589376",
    "stop_lon": "77.169518",
    "distance": 19.7,
    "Line": "Pink line",
    "stop_date": "2018-03-14",
    "stop_layout": "Elevated",
    "connection": "Orange"
  },
  {
    "stop_id": "182",
    "stop_name": "Nehru Enclave",
    "stop_lat": "28.545856",
    "stop_lon": "77.25116",
    "distance": 22.1,
    "Line": "Magenta line",
    "stop_date": "2018-05-29",
    "stop_layout": "Underground",
    "connection": null
  },
  {
    "stop_id": "183",
    "stop_name": "Greater Kailash",
    "stop_lat": "28.541836",
    "stop_lon": "77.238243",
    "distance": 20.8,
    "Line": "Magenta line",
    "stop_date": "2018-05-29",
    "stop_layout": "Underground",
    "connection": null
  },
  {
    "stop_id": "184",
    "stop_name": "Chirag Delhi",
    "stop_lat": "28.541229",
    "stop_lon": "77.229385",
    "distance": 19.9,
    "Line": "Magenta line",
    "stop_date": "2018-05-29",
    "stop_layout": "Underground",
    "connection": null
  },
  {
    "stop_id": "185",
    "stop_name": "Panchsheel Park",
    "stop_lat": "28.542339",
    "stop_lon": "77.220512",
    "distance": 19,
    "Line": "Magenta line",
    "stop_date": "2018-05-29",
    "stop_layout": "Underground",
    "connection": null
  },
  {
    "stop_id": "186",
    "stop_name": "IIT",
    "stop_lat": "28.547194",
    "stop_lon": "77.193832",
    "distance": 16.3,
    "Line": "Magenta line",
    "stop_date": "29-05-2018",
    "stop_layout": "Underground"
  },
  {
    "stop_id": "187",
    "stop_name": "RK Puram",
    "stop_lat": "28.550486",
    "stop_lon": "77.184952",
    "distance": 15.4,
    "Line": "Magenta line",
    "stop_date": "2018-05-29",
    "stop_layout": "Underground",
    "connection": null
  },
  {
    "stop_id": "188",
    "stop_name": "Munirka",
    "stop_lat": "28.557821",
    "stop_lon": "77.174026",
    "distance": 14,
    "Line": "Magenta line",
    "stop_date": "2018-05-29",
    "stop_layout": "Underground",
    "connection": null
  },
  {
    "stop_id": "189",
    "stop_name": "Vasant Vihar",
    "stop_lat": "28.558378",
    "stop_lon": "77.160774",
    "distance": 12.8,
    "Line": "Magenta line",
    "stop_date": "2018-05-29",
    "stop_layout": "Underground",
    "connection": null
  },
  {
    "stop_id": "190",
    "stop_name": "Shankar Vihar",
    "stop_lat": "28.560787",
    "stop_lon": "77.140442",
    "distance": 10.7,
    "Line": "Magenta line",
    "stop_date": "2018-05-29",
    "stop_layout": "Elevated",
    "connection": null
  },
  {
    "stop_id": "191",
    "stop_name": "Terminal 1- IGI Airport",
    "stop_lat": "28.565275",
    "stop_lon": "77.122391",
    "distance": 8.9,
    "Line": "Magenta line",
    "stop_date": "29-05-2018",
    "stop_layout": "Underground"
  },
  {
    "stop_id": "192",
    "stop_name": "Sadar Bazar Contonment",
    "stop_lat": "28.577108",
    "stop_lon": "77.111305",
    "distance": 7.2,
    "Line": "Magenta line",
    "stop_date": "29-05-2018",
    "stop_layout": "Elevated"
  },
  {
    "stop_id": "193",
    "stop_name": "Palam",
    "stop_lat": "28.589067",
    "stop_lon": "77.082954",
    "distance": 4.6,
    "Line": "Magenta line",
    "stop_date": "2018-05-29",
    "stop_layout": "Underground",
    "connection": null
  },
  {
    "stop_id": "194",
    "stop_name": "Dashrath Puri",
    "stop_lat": "28.602333",
    "stop_lon": "77.08255",
    "distance": 3.1,
    "Line": "Magenta line",
    "stop_date": "2018-05-29",
    "stop_layout": "Underground",
    "connection": null
  },
  {
    "stop_id": "195",
    "stop_name": "Dabri Mor - Janakpuri South",
    "stop_lat": "28.615904",
    "stop_lon": "77.085258",
    "distance": 2,
    "Line": "Magenta line",
    "stop_date": "2018-05-29",
    "stop_layout": "Underground",
    "connection": null
  },
  {
    "stop_id": "196",
    "stop_name": "Mundka Industrial Area (M.I.A)",
    "stop_lat": "28.6834",
    "stop_lon": "77.0173",
    "distance": 13.7,
    "Line": "Green line",
    "stop_date": "02-04-2010",
    "stop_layout": "Elevated"
  },
  {
    "stop_id": "197",
    "stop_name": "Ghevra Metro station",
    "stop_lat": "28.685289",
    "stop_lon": "76.993584",
    "distance": 17.1,
    "Line": "Green line",
    "stop_date": "2018-06-24",
    "stop_layout": "Elevated",
    "connection": null
  },
  {
    "stop_id": "198",
    "stop_name": "Tikri Kalan",
    "stop_lat": "28.686899",
    "stop_lon": "76.977249",
    "distance": 18.9,
    "Line": "Green line",
    "stop_date": "2018-06-24",
    "stop_layout": "Elevated",
    "connection": null
  },
  {
    "stop_id": "199",
    "stop_name": "Tikri Border",
    "stop_lat": "28.687876",
    "stop_lon": "76.963783",
    "distance": 20.2,
    "Line": "Green line",
    "stop_date": "2018-06-24",
    "stop_layout": "Elevated",
    "connection": null
  },
  {
    "stop_id": "200",
    "stop_name": "Pandit Shree Ram Sharma",
    "stop_lat": "28.689213",
    "stop_lon": "76.951088",
    "distance": 21.5,
    "Line": "Green line",
    "stop_date": "2018-06-24",
    "stop_layout": "Elevated",
    "connection": null
  },
  {
    "stop_id": "201",
    "stop_name": "Bahadurgarh City",
    "stop_lat": "28.690784",
    "stop_lon": "76.935265",
    "distance": 23,
    "Line": "Green line",
    "stop_date": "24-06-2018",
    "stop_layout": "Elevated"
  },
  {
    "stop_id": "202",
    "stop_name": "Brigadier Hoshiyar Singh",
    "stop_lat": "28.697428",
    "stop_lon": "76.919128",
    "distance": 24.8,
    "Line": "Green line",
    "stop_date": "24-06-2018",
    "stop_layout": "Elevated"
  },
  {
    "stop_id": "203",
    "stop_name": "Sir Vishweshwaraiah Moti Bagh",
    "stop_lat": "28.578529",
    "stop_lon": "77.175713",
    "distance": 21,
    "Line": "Pink line",
    "stop_date": "2018-06-08",
    "stop_layout": "Elevated",
    "connection": null
  },
  {
    "stop_id": "204",
    "stop_name": "Bhikaji Cama Place",
    "stop_lat": "28.570208",
    "stop_lon": "77.187866",
    "distance": 22.6,
    "Line": "Pink line",
    "stop_date": "2018-06-08",
    "stop_layout": "Underground",
    "connection": null
  },
  {
    "stop_id": "205",
    "stop_name": "Sarojini Nagar",
    "stop_lat": "28.570208",
    "stop_lon": "77.187866",
    "distance": 23.8,
    "Line": "Pink line",
    "stop_date": "2018-06-08",
    "stop_layout": "Underground",
    "connection": null
  },
  {
    "stop_id": "206",
    "stop_name": "South Extension",
    "stop_lat": "28.5686",
    "stop_lon": "77.219818",
    "distance": 26.1,
    "Line": "Pink line",
    "stop_date": "2018-06-08",
    "stop_layout": "Underground",
    "connection": null
  },
  {
    "stop_id": "207",
    "stop_name": "Trilokpuri Sanjay Lake",
    "stop_lat": "28.613506",
    "stop_lon": "77.308678",
    "distance": 37.9,
    "Line": "Pink line",
    "stop_date": "2018-10-31",
    "stop_layout": "Elevated",
    "connection": null
  },
  {
    "stop_id": "208",
    "stop_name": "East Vinod Nagar - Mayur Vihar-II",
    "stop_lat": "28.620052",
    "stop_lon": "77.305588",
    "distance": 38.7,
    "Line": "Pink line",
    "stop_date": "31-10-2018",
    "stop_layout": "Elevated"
  },
  {
    "stop_id": "209",
    "stop_name": "Mandawali - West Vinod Nagar",
    "stop_lat": "28.624861",
    "stop_lon": "77.304146",
    "distance": 39.3,
    "Line": "Pink line",
    "stop_date": "2018-10-31",
    "stop_layout": "Elevated",
    "connection": null
  },
  {
    "stop_id": "210",
    "stop_name": "IP Extension",
    "stop_lat": "28.631599",
    "stop_lon": "77.310898",
    "distance": 40.3,
    "Line": "Pink line",
    "stop_date": "2018-10-31",
    "stop_layout": "Elevated",
    "connection": null
  },
  {
    "stop_id": "211",
    "stop_name": "Karkarduma Court",
    "stop_lat": "28.6536",
    "stop_lon": "77.2956",
    "distance": 44,
    "Line": "Pink line",
    "stop_date": "2018-10-31",
    "stop_layout": "Elevated",
    "connection": null
  },
  {
    "stop_id": "212",
    "stop_name": "Krishna Nagar",
    "stop_lat": "28.65782",
    "stop_lon": "77.290306",
    "distance": 44.7,
    "Line": "Pink line",
    "stop_date": "2018-10-31",
    "stop_layout": "Elevated",
    "connection": null
  },
  {
    "stop_id": "213",
    "stop_name": "East Azad Nagar",
    "stop_lat": "28.665043",
    "stop_lon": "77.284599",
    "distance": 45.7,
    "Line": "Pink line",
    "stop_date": "2018-10-31",
    "stop_layout": "Elevated",
    "connection": null
  },
  {
    "stop_id": "214",
    "stop_name": "Jafrabad",
    "stop_lat": "28.682943",
    "stop_lon": "77.27507",
    "distance": 48,
    "Line": "Pink line",
    "stop_date": "31-10-2018",
    "stop_layout": "Elevated"
  },
  {
    "stop_id": "215",
    "stop_name": "Maujpur - Babarpur",
    "stop_lat": "28.692057",
    "stop_lon": "77.280922",
    "distance": 49.1,
    "Line": "Pink line",
    "stop_date": "31-10-2018",
    "stop_layout": "Elevated"
  },
  {
    "stop_id": "216",
    "stop_name": "Gokulpuri",
    "stop_lat": "28.703009",
    "stop_lon": "77.286301",
    "distance": 50.4,
    "Line": "Pink line",
    "stop_date": "2018-10-31",
    "stop_layout": "Elevated",
    "connection": null
  },
  {
    "stop_id": "217",
    "stop_name": "Johri Enclave",
    "stop_lat": "28.713297",
    "stop_lon": "77.290154",
    "distance": 51.7,
    "Line": "Pink line",
    "stop_date": "2018-10-31",
    "stop_layout": "Elevated",
    "connection": null
  },
  {
    "stop_id": "218",
    "stop_name": "Shiv Vihar",
    "stop_lat": "28.721863",
    "stop_lon": "77.289635",
    "distance": 52.6,
    "Line": "Pink line",
    "stop_date": "2018-10-31",
    "stop_layout": "Elevated",
    "connection": null
  },
  {
    "stop_id": "219",
    "stop_name": "Sant Surdas (Sihi)",
    "stop_lat": "28.354666",
    "stop_lon": "77.316261",
    "distance": 41.8,
    "Line": "Voilet line",
    "stop_date": "19-11-2018",
    "stop_layout": "Elevated"
  },
  {
    "stop_id": "220",
    "stop_name": "Raja Nahar Singh",
    "stop_lat": "28.3398",
    "stop_lon": "77.3164",
    "distance": 43.5,
    "Line": "Voilet line",
    "stop_date": "2018-11-19",
    "stop_layout": "Elevated",
    "connection": null
  },
  {
    "stop_id": "221",
    "stop_name": "Vinobapuri",
    "stop_lat": "28.566179",
    "stop_lon": "77.249367",
    "distance": 29.1,
    "Line": "Pink line",
    "stop_date": "2018-12-31",
    "stop_layout": "Underground",
    "connection": null
  },
  {
    "stop_id": "222",
    "stop_name": "Ashram",
    "stop_lat": "28.576065",
    "stop_lon": "77.25753",
    "distance": 30.3,
    "Line": "Pink line",
    "stop_date": "2018-12-31",
    "stop_layout": "Underground",
    "connection": null
  },
  {
    "stop_id": "223",
    "stop_name": "Sarai Kale Khan - Nizamuddin",
    "stop_lat": "28.5893",
    "stop_lon": "77.2571",
    "distance": 32.2,
    "Line": "Pink line",
    "stop_date": "31-12-2018",
    "stop_layout": "Underground"
  },
  {
    "stop_id": "224",
    "stop_name": "Mayur Vihar Pocket 1",
    "stop_lat": "28.606598",
    "stop_lon": "77.296326",
    "distance": 36.6,
    "Line": "Pink line",
    "stop_date": "31-10-2018",
    "stop_layout": "Elevated"
  },
  {
    "stop_id": "225",
    "stop_name": "Shaheed Sthal (New Bus Adda)",
    "stop_lat": "28.670177",
    "stop_lon": "77.416031",
    "distance": 0,
    "Line": "Red line",
    "stop_date": "08-03-2019",
    "stop_layout": "Elevated"
  },
  {
    "stop_id": "226",
    "stop_name": "Hindon River",
    "stop_lat": "28.673508",
    "stop_lon": "77.40654",
    "distance": 1,
    "Line": "Red line",
    "stop_date": "2019-08-03",
    "stop_layout": "Elevated",
    "connection": null
  },
  {
    "stop_id": "227",
    "stop_name": "Arthala",
    "stop_lat": "28.6772",
    "stop_lon": "77.391876",
    "distance": 2.5,
    "Line": "Red line",
    "stop_date": "2019-08-03",
    "stop_layout": "Elevated",
    "connection": null
  },
  {
    "stop_id": "228",
    "stop_name": "Mohan Nagar",
    "stop_lat": "28.67856",
    "stop_lon": "77.384209",
    "distance": 3.2,
    "Line": "Red line",
    "stop_date": "2019-08-03",
    "stop_layout": "Elevated",
    "connection": null
  },
  {
    "stop_id": "229",
    "stop_name": "Shyam Park",
    "stop_lat": "28.678217",
    "stop_lon": "77.370911",
    "distance": 4.5,
    "Line": "Red line",
    "stop_date": "08-03-2019",
    "stop_layout": "Elevated"
  },
  {
    "stop_id": "230",
    "stop_name": "Major Mohit Sharma Rajender Nagar",
    "stop_lat": "28.678095",
    "stop_lon": "77.359528",
    "distance": 5.7,
    "Line": "Red line",
    "stop_date": "08-03-2019",
    "stop_layout": "Elevated"
  },
  {
    "stop_id": "231",
    "stop_name": "Raj Bagh",
    "stop_lat": "28.677122",
    "stop_lon": "77.346466",
    "distance": 6.9,
    "Line": "Red line",
    "stop_date": "2019-08-03",
    "stop_layout": "Elevated",
    "connection": null
  },
  {
    "stop_id": "232",
    "stop_name": "Shaheed Nagar",
    "stop_lat": "28.676615",
    "stop_lon": "77.333809",
    "distance": 8.2,
    "Line": "Red line",
    "stop_date": "2019-08-03",
    "stop_layout": "Elevated",
    "connection": null
  },
  {
    "stop_id": "233",
    "stop_name": "Noida Sec-34",
    "stop_lat": "28.580229",
    "stop_lon": "77.363518",
    "distance": 48.1,
    "Line": "Blue line",
    "stop_date": "09-03-2019",
    "stop_layout": "Elevated"
  },
  {
    "stop_id": "234",
    "stop_name": "Noida Sec-52",
    "stop_lat": "28.586849",
    "stop_lon": "77.372749",
    "distance": 49.3,
    "Line": "Blue line",
    "stop_date": "09-03-2019",
    "stop_layout": "Elevated",
    "connection": "Aqua"
  },
  {
    "stop_id": "235",
    "stop_name": "Noida Sec-61",
    "stop_lat": "28.597677",
    "stop_lon": "77.372368",
    "distance": 50.5,
    "Line": "Blue line",
    "stop_date": "09-03-2019",
    "stop_layout": "Elevated"
  },
  {
    "stop_id": "236",
    "stop_name": "Noida Sec-59",
    "stop_lat": "28.609089",
    "stop_lon": "77.372955",
    "distance": 51.5,
    "Line": "Blue line",
    "stop_date": "09-03-2019",
    "stop_layout": "Elevated"
  },
  {
    "stop_id": "237",
    "stop_name": "Noida Sec-62",
    "stop_lat": "28.616991",
    "stop_lon": "77.373611",
    "distance": 52.7,
    "Line": "Blue line",
    "stop_date": "09-03-2019",
    "stop_layout": "Elevated"
  },
  {
    "stop_id": "238",
    "stop_name": "Noida Electronic City",
    "stop_lat": "28.628685",
    "stop_lon": "77.375229",
    "distance": 53.5,
    "Line": "Blue line",
    "stop_date": "09-03-2019",
    "stop_layout": "Elevated"
  },
  {
    "stop_id": "239",
    "stop_name": "Nangli",
    "stop_lat": "28.61722",
    "stop_lon": "77.010345",
    "distance": 1.5,
    "Line": "Gray line",
    "stop_date": "2019-04-10",
    "stop_layout": "Elevated",
    "connection": null
  },
  {
    "stop_id": "240",
    "stop_name": "Najafgarh",
    "stop_lat": "28.613316",
    "stop_lon": "76.986259",
    "distance": 3.9,
    "Line": "Gray line",
    "stop_date": "2019-04-10",
    "stop_layout": "Underground",
    "connection": null
  },
  {
    "stop_id": "241",
    "stop_name": "Dhansa Bus Stand",
    "stop_lat": "28.611858",
    "stop_lon": "76.975426",
    "distance": 4.5,
    "Line": "Gray line",
    "stop_date": "2019-08-18",
    "stop_layout": "Underground"
  },
  {
    "stop_id": "500",
    "stop_name": "Noida Sector 51",
    "stop_lat": "28.585548",
    "stop_lon": "77.375374",
    "distance": 0,
    "Line": "Aqua line",
    "stop_date": "2019-01-25",
    "stop_layout": "Elevated",
    "connection": "Blue"
  },
  {
    "stop_id": "501",
    "stop_name": "Noida Sector 50",
    "stop_lat": "28.574547",
    "stop_lon": "77.378357",
    "distance": 1.3,
    "Line": "Aqua line",
    "stop_date": "2019-01-25",
    "stop_layout": "Elevated",
    "connection": null
  },
  {
    "stop_id": "502",
    "stop_name": "Noida Sector 76",
    "stop_lat": "28.565445",
    "stop_lon": "77.37973",
    "distance": 2.3,
    "Line": "Aqua line",
    "stop_date": "2019-01-25",
    "stop_layout": "Elevated",
    "connection": null
  },
  {
    "stop_id": "503",
    "stop_name": "Noida Sector 101",
    "stop_lat": "28.556065",
    "stop_lon": "77.385056",
    "distance": 3.4,
    "Line": "Aqua line",
    "stop_date": "2019-01-25",
    "stop_layout": "Elevated",
    "connection": null
  },
  {
    "stop_id": "504",
    "stop_name": "Noida Sector 81",
    "stop_lat": "28.549259",
    "stop_lon": "77.390099",
    "distance": 4.3,
    "Line": "Aqua line",
    "stop_date": "2019-01-25",
    "stop_layout": "Elevated",
    "connection": null
  },
  {
    "stop_id": "505",
    "stop_name": "NSEZ",
    "stop_lat": "28.532248",
    "stop_lon": "77.394951",
    "distance": 6.3,
    "Line": "Aqua line",
    "stop_date": "25-01-2019",
    "stop_layout": "Elevated"
  },
  {
    "stop_id": "506",
    "stop_name": "Noida Sector 83",
    "stop_lat": "28.522284",
    "stop_lon": "77.396477",
    "distance": 7.4,
    "Line": "Aqua line",
    "stop_date": "2019-01-25",
    "stop_layout": "Elevated",
    "connection": null
  },
  {
    "stop_id": "507",
    "stop_name": "Noida Sector 137",
    "stop_lat": "28.510817",
    "stop_lon": "77.403625",
    "distance": 8.9,
    "Line": "Aqua line",
    "stop_date": "2019-01-25",
    "stop_layout": "Elevated",
    "connection": null
  },
  {
    "stop_id": "508",
    "stop_name": "Noida Sector 142",
    "stop_lat": "28.498999",
    "stop_lon": "77.412567",
    "distance": 10.5,
    "Line": "Aqua line",
    "stop_date": "2019-01-25",
    "stop_layout": "Elevated",
    "connection": null
  },
  {
    "stop_id": "509",
    "stop_name": "Noida Sector 143",
    "stop_lat": "28.494246",
    "stop_lon": "77.422318",
    "distance": 11.5,
    "Line": "Aqua line",
    "stop_date": "2019-01-25",
    "stop_layout": "Elevated",
    "connection": null
  },
  {
    "stop_id": "510",
    "stop_name": "Noida Sector 144",
    "stop_lat": "28.486376",
    "stop_lon": "77.432968",
    "distance": 12.9,
    "Line": "Aqua line",
    "stop_date": "2019-01-25",
    "stop_layout": "Elevated",
    "connection": null
  },
  {
    "stop_id": "511",
    "stop_name": "Noida Sector 145",
    "stop_lat": "28.47913",
    "stop_lon": "77.442307",
    "distance": 14.1,
    "Line": "Aqua line",
    "stop_date": "2019-01-25",
    "stop_layout": "Elevated",
    "connection": null
  },
  {
    "stop_id": "512",
    "stop_name": "Noida Sector 146",
    "stop_lat": "28.468822",
    "stop_lon": "77.455101",
    "distance": 15.8,
    "Line": "Aqua line",
    "stop_date": "2019-01-25",
    "stop_layout": "Elevated",
    "connection": null
  },
  {
    "stop_id": "513",
    "stop_name": "Noida Sector 147",
    "stop_lat": "28.4594",
    "stop_lon": "77.465965",
    "distance": 17.3,
    "Line": "Aqua line",
    "stop_date": "2019-01-25",
    "stop_layout": "Elevated",
    "connection": null
  },
  {
    "stop_id": "514",
    "stop_name": "Noida Sector 148",
    "stop_lat": "28.448021",
    "stop_lon": "77.476692",
    "distance": 18.9,
    "Line": "Aqua line",
    "stop_date": "2019-01-25",
    "stop_layout": "Elevated",
    "connection": null
  },
  {
    "stop_id": "515",
    "stop_name": "Knowledge Park",
    "stop_lat": "28.456865",
    "stop_lon": "77.500298",
    "distance": 21.4,
    "Line": "Aqua line",
    "stop_date": "25-01-2019",
    "stop_layout": "Elevated"
  },
  {
    "stop_id": "516",
    "stop_name": "Pari Chowk",
    "stop_lat": "28.463331",
    "stop_lon": "77.508308",
    "distance": 22.5,
    "Line": "Aqua line",
    "stop_date": "25-01-2019",
    "stop_layout": "Elevated"
  },
  {
    "stop_id": "517",
    "stop_name": "Alpha 1",
    "stop_lat": "28.470879",
    "stop_lon": "77.512718",
    "distance": 23.4,
    "Line": "Aqua line",
    "stop_date": "25-01-2019",
    "stop_layout": "Elevated"
  },
  {
    "stop_id": "518",
    "stop_name": "Delta 1",
    "stop_lat": "28.478374",
    "stop_lon": "77.525581",
    "distance": 24.9,
    "Line": "Aqua line",
    "stop_date": "25-01-2019",
    "stop_layout": "Elevated"
  },
  {
    "stop_id": "519",
    "stop_name": "GNIDA Office",
    "stop_lat": "28.484531",
    "stop_lon": "77.536621",
    "distance": 26.2,
    "Line": "Aqua line",
    "stop_date": "2019-01-25",
    "stop_layout": "Elevated",
    "connection": null
  },
  {
    "stop_id": "520",
    "stop_name": "Depot Station",
    "stop_lat": "28.488651",
    "stop_lon": "77.544075",
    "distance": 27.1,
    "Line": "Aqua line",
    "stop_date": "25-01-2019",
    "stop_layout": "Elevated"
  }
]
